[
    {"id":1,"name":"狐妖小红娘","address":"腾讯动漫","remark":"真的好看","img":"/static/images/1.jpg","type":1,"latitude": 30.575702,"longitude": 114.323119},
    {"id":2,"name":"斗破苍穹","address":"腾讯动漫","remark":"畅销小说改编","img":"/static/images/2.jpg","type":1,"latitude": 30.574270,"longitude": 114.330533},
    {"id":3,"name":"驭灵师","address":"腾讯动漫","remark":"人气漫画","img":"/static/images/3.jpg","type":1,"latitude": 30.580126,"longitude": 114.331734},
    {"id":4,"name":"镇魂街","address":"有妖气","remark":"畅销漫画","img":"/static/images/4.jpg","type":1,"latitude": 30.579295,"longitude": 114.326992},
    {"id":5,"name":"长安妖歌","address":"有妖气","remark":"叙事佳作","img":"/static/images/5.jpg","type":1,"latitude": 30.576413,"longitude": 114.339437}
]